{"version": 0.6, "generator": "Overpass API 0.7.62.5 1bd436f1", "osm3s": {"timestamp_osm_base": "2025-05-24T00:55:07Z", "copyright": "The data included in this document is from www.openstreetmap.org. The data is made available under ODbL."}, "elements": [{"type": "node", "id": 9125561102, "lat": -4.0192219, "lon": -73.1381607}, {"type": "node", "id": 9125561103, "lat": -4.0203517, "lon": -73.1370016}, {"type": "node", "id": 9125561104, "lat": -4.0215696, "lon": -73.1343675}, {"type": "node", "id": 9125561105, "lat": -4.0229921, "lon": -73.1370362}, {"type": "node", "id": 9125561106, "lat": -4.0219073, "lon": -73.1399787}, {"type": "node", "id": 9125561107, "lat": -4.0199636, "lon": -73.1392623}, {"type": "node", "id": 9125561108, "lat": -4.0197827, "lon": -73.1388261}, {"type": "way", "id": 987269725, "nodes": [9125561108, 9125561107, 9125561106, 9125561105, 9125561104, 9125561103, 9125561102, 9125561108]}, {"type": "relation", "id": 13266267, "members": [{"type": "way", "ref": 987269725, "role": "outer"}], "tags": {"boundary": "protected_area", "name": "\u00c1rea de Conservaci\u00f3n Privada Ni Meraya", "name:de": "Privates Schutzgebiet Ni Meraya", "name:en": "Ni Meraya Private Conservation Area", "name:fr": "Zone de conservation priv\u00e9e Ni Meraya", "name:it": "Area di conservazione privata di Ni Meraya", "name:pt": "\u00c1rea de Conserva\u00e7\u00e3o Privada Ni Meraya", "owner": "Silvia Patricia Arispe Baz\u00e1n y la Sociedad conyugal Luis Carlos Nevado Tavara y Cecilia Mar\u00eda Chiara Mezzano", "protect_class": "6", "protected": "perpetuity", "protection_title": "\u00c1rea de Conservaci\u00f3n Privada", "related_law": "R.M. N\u00ba 172-2021-MINAM", "short_name": "Ni Meraya", "start_date": "2021-09-20", "type": "boundary"}}]}