{"version": 0.6, "generator": "Overpass API 0.7.62.5 1bd436f1", "osm3s": {"timestamp_osm_base": "2025-05-24T01:25:02Z", "copyright": "The data included in this document is from www.openstreetmap.org. The data is made available under ODbL."}, "elements": [{"type": "node", "id": 6443460317, "lat": -6.350884, "lon": -80.9074191}, {"type": "node", "id": 6443460318, "lat": -6.3510168, "lon": -80.8335441}, {"type": "node", "id": 6443460319, "lat": -6.3510265, "lon": -80.8335052}, {"type": "node", "id": 6443460320, "lat": -6.3510802, "lon": -80.8334304}, {"type": "node", "id": 6443460321, "lat": -6.3510894, "lon": -80.833368}, {"type": "node", "id": 6443460322, "lat": -6.3503571, "lon": -80.810331}, {"type": "node", "id": 6443460323, "lat": -6.5055719, "lon": -80.8102732}, {"type": "node", "id": 6443460324, "lat": -6.5066001, "lon": -80.9058891}, {"type": "way", "id": 687399947, "nodes": [6443460317, 6443460318, 6443460319, 6443460320, 6443460321, 6443460322, 6443460323, 6443460324, 6443460317]}, {"type": "relation", "id": 9536023, "members": [{"type": "way", "ref": 687399947, "role": "outer"}], "tags": {"boundary": "protected_area", "description": "Isla Lobos de Tierra forma parte de la Reserva Nacional Sistema de Islas, Islotes y Puntas Guaneras (RNSIIPG), que est\u00e1 integrada por un conjunto de islas, islotes, grupos de islas y puntas a lo largo de la costa peruana.", "name": "Isla Lobos de Tierra", "name:en": "Lobos de Tierra Island", "name:es": "Isla Lobos de Tierra", "official_name": "Sistema de Islas, Islotes y Puntas Guaneras - Isla Lobos de Tierra", "operator": "SERNANP", "protect_class": "6", "related_law": "DS. N\u00ba 024-2009-MINAM.", "short_name": "RNSIIPG", "start_date": "2009-12-31", "type": "boundary", "website": "https://www.sernanp.gob.pe/sistema-de-islas-islotes-y-puntas-guaneras", "wikidata": "Q1674034", "wikipedia": "es:Isla Lobos de Tierra"}}]}